[{"city":"Nanjing","lon":118.77780151367,"lat":32.061698913574,"count":173},{"city":"Shenzhen","lon":114.13330078125,"lat":22.53330039978,"count":2},{"city":"Haikou","lon":110.34169769287,"lat":20.045799255371,"count":1},{"city":"Shanghai","lon":121.3996963501,"lat":31.045600891113,"count":82626},{"city":"Guiyang","lon":106.71669769287,"lat":26.583299636841,"count":1},{"city":"Fuzhou","lon":119.30609893799,"lat":26.061399459839,"count":1457},{"city":"Beijing","lon":116.38829803467,"lat":39.928901672363,"count":541}]
